[
  {
    "images": [
      { "url": "/images/results/11.jpg" },
      { "url": "/images/results/12.jpg" },
      { "url": "/images/results/13.jpg" },
      { "url": "/images/results/19.jpg" }
    ],
    "location": "London",
    "title": "Stay at this spacious Edwardian House",
    "description": "1 guest · 1 bedroom · 1 bed · 1.5 shared bthrooms · Wifi · Kitchen · Free parking · Washing Machine",
    "star": "4.73",
    "price": "£30 / night",
    "total": "£117 total",
    "longitude": -0.0022275,
    "latitude": 51.5421655
  },
  {
    "images": [
      { "url": "/images/results/5.jpg" },
      { "url": "/images/results/6.jpg" },
      { "url": "/images/results/7.jpg" }
    ],
    "location": "London",
    "title": "Independent luxury studio apartment",
    "description": "2 guest · 3 bedroom · 1 bed · 1.5 shared bthrooms · Wifi · Kitchen",
    "star": "4.3",
    "price": "£40 / night",
    "total": "£157 total",
    "longitude": -0.095091,
    "latitude": 51.48695
  },
  {
    "images": [
      { "url": "/images/results/4.jpg" },
      { "url": "/images/results/9.jpg" },
      { "url": "/images/results/10.jpg" }
    ],
    "location": "London",
    "title": "Luxury london studio apartments",
    "description": "4 guest · 4 bedroom · 4 bed · 2 bathrooms · Free parking · Washing Machine",
    "star": "3.8",
    "price": "£35 / night",
    "total": "£207 total",
    "longitude": -0.135638,
    "latitude": 51.521916
  },
  {
    "images": [{ "url": "/images/results/8.jpg" }],
    "location": "London",
    "title": "30 mins to Oxford Street, Excel London",
    "description": "1 guest · 1 bedroom · 1 bed · 1.5 shared bthrooms · Wifi · Kitchen · Free parking · Washing Machine",
    "star": "4.1",
    "price": "£55 / night",
    "total": "£320 total",
    "longitude": -0.069961,
    "latitude": 51.472618
  },
  {
    "images": [
      { "url": "/images/results/1.jpg" },
      { "url": "/images/results/2.jpg" },
      { "url": "/images/results/3.jpg" },
      { "url": "/images/results/15.jpg" }
    ],
    "location": "London",
    "title": "Spacious Peaceful Modern Bedroom",
    "description": "3 guest · 1 bedroom · 1 bed · 1.5 shared bthrooms · Wifi · Free parking · Dry Cleaning",
    "star": "5.0",
    "price": "£60 / night",
    "total": "£450 total",
    "longitude": -0.08472,
    "latitude": 51.510794
  },
  {
    "images": [
      { "url": "/images/results/16.jpg" },
      { "url": "/images/results/17.jpg" }
    ],
    "location": "London",
    "title": "Exlixir Luxury Room In London",
    "description": "2 guest · 1 bedroom · 1 bed · 1.5 shared bthrooms · Wifi · Washing Machine",
    "star": "4.23",
    "price": "£65 / night",
    "total": "£480 total",
    "longitude": -0.094116,
    "latitude": 51.51401
  },
  {
    "images": [
      { "url": "/images/results/18.jpg" },
      { "url": "/images/results/14.jpg" },
      { "url": "/images/results/20.jpg" }
    ],
    "location": "London",
    "title": "5 Star Luxury Apartment",
    "description": "3 guest · 1 bedroom · 1 bed · 1.5 shared bthrooms · Wifi · Kitchen · Free parking · Washing Machine",
    "star": "3.85",
    "price": "£90 / night",
    "total": "£650 total",
    "longitude": -0.109889,
    "latitude": 51.521245
  }
]

// https://jsonkeeper.com/b/NZ80
// https://jsonkeeper.com/b/841U
// https://jsonkeeper.com/b/WKZ2

// https://jsonkeeper.com/b/TMUL